[{"id":"76dd0043-d39a-47a4-82b2-366a1915b084","name":"Moen, Hegmann and Runolfsson","address":"99159 Hayes Way","city":"Las Vegas","state":"Nevada","zipcode":"89125","latitude":36.2235,"longitude":-115.2655,"open":true,"stars":1.4,"price":4,"phone":"702-283-9976","website":"nba.com","foods":[],"cuisines":[],"reviews":[]},
{"id":"64d8b2c3-3177-4a25-a426-c1a7e8aece94","name":"Daniel, Harris and Beatty","address":"4 Eliot Place","city":"Tyler","state":"Texas","zipcode":"75799","latitude":32.4112,"longitude":-95.2899,"open":true,"stars":1.0,"price":4,"phone":"903-576-7589","website":"goo.gl","foods":[],"cuisines":[],"reviews":[]},
{"id":"88598e16-de1e-4e31-b872-30025b4a2b07","name":"Quitzon and Sons","address":"1 Granby Circle","city":"Fort Lauderdale","state":"Florida","zipcode":"33330","latitude":26.0663,"longitude":-80.3339,"open":true,"stars":0.1,"price":3,"phone":"954-721-6672","website":"upenn.edu","foods":[],"cuisines":[],"reviews":[]},
{"id":"344f37fd-c422-49b0-9284-7e7336c87c33","name":"Parisian-Spencer","address":"76 Memorial Street","city":"Pensacola","state":"Florida","zipcode":"32520","latitude":30.4124,"longitude":-87.2035,"open":false,"stars":null,"price":null,"phone":"850-716-3516","website":null,"foods":[],"cuisines":[],"reviews":[]},
{"id":"88d3fc0b-b47f-4fb1-be1b-c1eed0294f40","name":"Waelchi, Jones and Ryan","address":"958 Canary Way","city":"Oklahoma City","state":"Oklahoma","zipcode":"73179","latitude":35.4242,"longitude":-97.6547,"open":true,"stars":3.5,"price":3,"phone":"405-471-9587","website":"fastcompany.com","foods":[],"cuisines":[],"reviews":[]},
{"id":"f9e78a9c-deb2-4737-8295-56184a04aefc","name":"Greenfelder, Watsica and Connelly","address":"7 Oneill Park","city":"Woburn","state":"Massachusetts","zipcode":"01813","latitude":42.4464,"longitude":-71.4594,"open":true,"stars":1.5,"price":2,"phone":"339-384-7780","website":"com.com","foods":[],"cuisines":[],"reviews":[]},
{"id":"d5d757f0-d1a0-4c3c-a9e8-ea6089ae3469","name":"Koepp and Sons","address":"889 International Park","city":"Buffalo","state":"New York","zipcode":"14210","latitude":42.8614,"longitude":-78.8206,"open":true,"stars":2.7,"price":4,"phone":"716-643-6265","website":"xrea.com","foods":[],"cuisines":[],"reviews":[]},
{"id":"c9408777-bf45-4933-87c6-789f58e3acf9","name":"Lynch, Hermann and Haag","address":"5461 Lerdahl Pass","city":"Louisville","state":"Kentucky","zipcode":"40298","latitude":38.189,"longitude":-85.6768,"open":false,"stars":0.0,"price":3,"phone":"502-290-3290","website":"mysql.com","foods":[],"cuisines":[],"reviews":[]},
{"id":"55a47374-2b1a-452b-801f-34439609079e","name":"Beahan LLC","address":"206 Hazelcrest Trail","city":"Cincinnati","state":"Ohio","zipcode":"45296","latitude":39.1668,"longitude":-84.5382,"open":false,"stars":3.3,"price":4,"phone":"513-608-6843","website":"independent.co.uk","foods":[],"cuisines":[],"reviews":[]},
{"id":"7e720a70-a9dd-4603-82d1-685a71066caa","name":"Macejkovic-Kutch","address":"668 Melvin Parkway","city":"Saint Louis","state":"Missouri","zipcode":"63126","latitude":38.5495,"longitude":-90.3811,"open":false,"stars":0.2,"price":1,"phone":"314-575-4082","website":"columbia.edu","foods":[],"cuisines":[],"reviews":[]},
{"id":"eeaabdf4-9eb6-44da-8040-97c704335890","name":"McDermott Group","address":"3853 Riverside Drive","city":"Knoxville","state":"Tennessee","zipcode":"37995","latitude":35.9901,"longitude":-83.9622,"open":false,"stars":2.5,"price":3,"phone":"865-110-7888","website":"narod.ru","foods":[],"cuisines":[],"reviews":[]},
{"id":"def62281-6f82-4a77-8bf5-dfb6588cf954","name":"Stehr, Willms and Roob","address":"8 Melody Parkway","city":"Washington","state":"District of Columbia","zipcode":"20575","latitude":38.8933,"longitude":-77.0146,"open":false,"stars":3.8,"price":4,"phone":"202-130-1619","website":"gizmodo.com","foods":[],"cuisines":[],"reviews":[]},
{"id":"f6b6c949-5b46-48c7-bd2d-36e51ca04d5f","name":"Upton, Parker and Tromp","address":"5 Vidon Road","city":"Reno","state":"Nevada","zipcode":"89595","latitude":40.5412,"longitude":-119.5869,"open":true,"stars":1.8,"price":3,"phone":"775-920-0068","website":"nationalgeographic.com","foods":[],"cuisines":[],"reviews":[]},
{"id":"37c664a0-be8d-4b38-9d54-d193c5778237","name":"Oberbrunner Group","address":"595 North Drive","city":"Pittsburgh","state":"Pennsylvania","zipcode":"15225","latitude":40.5051,"longitude":-80.1155,"open":true,"stars":4.4,"price":2,"phone":"412-818-7391","website":"whitehouse.gov","foods":[],"cuisines":[],"reviews":[]},
{"id":"0370076d-33fa-4eeb-9b7b-404aa93dbbb2","name":"Emmerich, Runte and Crooks","address":"9168 Hallows Lane","city":"Schenectady","state":"New York","zipcode":"12325","latitude":42.8333,"longitude":-74.058,"open":true,"stars":null,"price":null,"phone":"518-281-1100","website":null,"foods":[],"cuisines":[],"reviews":[]},
{"id":"f3311aad-057a-41de-be21-da1d2f18aa7d","name":"Gutmann and Sons","address":"244 Dixon Trail","city":"Jackson","state":"Tennessee","zipcode":"38308","latitude":35.6124,"longitude":-88.8412,"open":false,"stars":1.6,"price":2,"phone":"731-919-3406","website":"sciencedirect.com","foods":[],"cuisines":[],"reviews":[]},
{"id":"7d6b8f55-496a-44ea-a5fc-c0ce0807803b","name":"Greenfelder, Torphy and Koch","address":"48 Warner Parkway","city":"Louisville","state":"Kentucky","zipcode":"40287","latitude":38.189,"longitude":-85.6768,"open":true,"stars":3.9,"price":2,"phone":"502-951-4960","website":"trellian.com","foods":[],"cuisines":[],"reviews":[]},
{"id":"517bb132-2b58-456c-8c92-904bb7ecfd22","name":"Padberg-Will","address":"99776 3rd Terrace","city":"Chula Vista","state":"California","zipcode":"91913","latitude":32.6513,"longitude":-116.9852,"open":true,"stars":1.7,"price":3,"phone":"619-786-0580","website":"google.co.uk","foods":[],"cuisines":[],"reviews":[]},
{"id":"3803abad-99ce-4b59-8af0-c045b06c01ea","name":"Cassin and Sons","address":"8 Pankratz Street","city":"Houston","state":"Texas","zipcode":"77085","latitude":29.6218,"longitude":-95.4819,"open":true,"stars":2.5,"price":1,"phone":"713-381-0133","website":"free.fr","foods":[],"cuisines":[],"reviews":[]},
{"id":"f88a5ea1-7095-4fa5-a786-fc6b9138585f","name":"Prosacco-Bogisich","address":"49 Miller Parkway","city":"Monticello","state":"Minnesota","zipcode":"55590","latitude":45.2009,"longitude":-93.8881,"open":false,"stars":null,"price":null,"phone":"763-769-2101","website":null,"foods":[],"cuisines":[],"reviews":[]},
{"id":"e1f3d0fd-b4dd-4ea0-918b-ae1928bcdd5f","name":"Moen Inc","address":"072 Stang Hill","city":"Dallas","state":"Texas","zipcode":"75226","latitude":32.7887,"longitude":-96.7676,"open":true,"stars":3.4,"price":1,"phone":"903-452-2699","website":"spiegel.de","foods":[],"cuisines":[],"reviews":[]},
{"id":"5899f862-8719-40b1-a2e4-bc2a5b2ad58a","name":"Kautzer, Wilkinson and Pacocha","address":"5665 Valley Edge Road","city":"Lubbock","state":"Texas","zipcode":"79415","latitude":33.6021,"longitude":-101.876,"open":false,"stars":null,"price":null,"phone":"806-526-5355","website":null,"foods":[],"cuisines":[],"reviews":[]},
{"id":"45d8ffca-20e8-4a5f-bac3-d5c02ec2f2c9","name":"Powlowski, Spinka and Torphy","address":"3 Evergreen Park","city":"Indianapolis","state":"Indiana","zipcode":"46295","latitude":39.7795,"longitude":-86.1328,"open":true,"stars":1.6,"price":2,"phone":"317-547-5820","website":"nydailynews.com","foods":[],"cuisines":[],"reviews":[]},
{"id":"a70e3d3e-f952-4a04-a303-201add6ad3dd","name":"DuBuque and Sons","address":"198 Stephen Road","city":"College Station","state":"Texas","zipcode":"77844","latitude":30.6521,"longitude":-96.341,"open":false,"stars":2.1,"price":1,"phone":"979-601-5455","website":"walmart.com","foods":[],"cuisines":[],"reviews":[]},
{"id":"d73d84e5-cd96-447d-aa86-19aa102fe2d7","name":"Gerhold-Terry","address":"91 Ludington Junction","city":"Glendale","state":"Arizona","zipcode":"85305","latitude":33.5291,"longitude":-112.2482,"open":true,"stars":null,"price":null,"phone":"602-887-4473","website":null,"foods":[],"cuisines":[],"reviews":[]},
{"id":"4865af57-7420-4eb5-b7bb-64c4b7cb1ee9","name":"Kreiger-Larson","address":"134 West Place","city":"Sacramento","state":"California","zipcode":"94297","latitude":38.3774,"longitude":-121.4444,"open":true,"stars":null,"price":null,"phone":"916-955-8220","website":null,"foods":[],"cuisines":[],"reviews":[]},
{"id":"e40d937a-ec36-473e-84ac-97b073a8dd1d","name":"Lowe LLC","address":"723 Wayridge Lane","city":"Tulsa","state":"Oklahoma","zipcode":"74156","latitude":36.3024,"longitude":-95.9605,"open":false,"stars":1.9,"price":3,"phone":"918-669-5872","website":"slideshare.net","foods":[],"cuisines":[],"reviews":[]},
{"id":"506b391c-b16c-4814-8e87-e01c18fb4ba0","name":"Crooks-Cummings","address":"673 Oneill Court","city":"Dayton","state":"Ohio","zipcode":"45403","latitude":39.7617,"longitude":-84.1498,"open":true,"stars":null,"price":null,"phone":"937-426-8620","website":null,"foods":[],"cuisines":[],"reviews":[]},
{"id":"68846f77-fe96-4e18-a3c7-e0bff3791b35","name":"Jast, Conroy and Moen","address":"29 Dwight Hill","city":"Kansas City","state":"Missouri","zipcode":"64179","latitude":39.035,"longitude":-94.3567,"open":false,"stars":null,"price":null,"phone":"816-910-0934","website":null,"foods":[],"cuisines":[],"reviews":[]},
{"id":"53b19570-e098-4d22-9909-5bbb78f83c21","name":"Lind LLC","address":"713 La Follette Alley","city":"Peoria","state":"Illinois","zipcode":"61605","latitude":40.6775,"longitude":-89.6263,"open":true,"stars":4.6,"price":4,"phone":"309-329-0082","website":"npr.org","foods":[],"cuisines":[],"reviews":[]},
{"id":"273b29b7-be80-4ffb-b54f-05995eaf2ebb","name":"Jacobi, Yundt and Herzog","address":"565 Gateway Court","city":"Fort Worth","state":"Texas","zipcode":"76110","latitude":32.7065,"longitude":-97.3375,"open":true,"stars":0.5,"price":3,"phone":"682-877-6182","website":"diigo.com","foods":[],"cuisines":[],"reviews":[]},
{"id":"dccac3b5-428f-4a97-b25f-57e2a171034c","name":"O'Hara-Rodriguez","address":"9 Park Meadow Place","city":"Knoxville","state":"Tennessee","zipcode":"37919","latitude":35.9244,"longitude":-84.0015,"open":false,"stars":null,"price":null,"phone":"865-420-4270","website":null,"foods":[],"cuisines":[],"reviews":[]},
{"id":"e7bee146-e649-4ed8-8354-9ff375ccbe5e","name":"Bashirian, Braun and Green","address":"695 Hagan Drive","city":"Montgomery","state":"Alabama","zipcode":"36109","latitude":32.3834,"longitude":-86.2434,"open":true,"stars":null,"price":null,"phone":"334-280-8028","website":null,"foods":[],"cuisines":[],"reviews":[]},
{"id":"99592b48-8951-443c-a44b-dd3bbd860ded","name":"Botsford, Hyatt and McKenzie","address":"46 Donald Hill","city":"Tulsa","state":"Oklahoma","zipcode":"74193","latitude":36.1398,"longitude":-96.0297,"open":false,"stars":null,"price":null,"phone":"918-753-9406","website":null,"foods":[],"cuisines":[],"reviews":[]},
{"id":"e88c3fc6-c1fd-447b-aa8f-602d7523b65e","name":"Hane LLC","address":"87 Havey Hill","city":"Chicago","state":"Illinois","zipcode":"60652","latitude":41.7454,"longitude":-87.7135,"open":false,"stars":2.6,"price":1,"phone":null,"website":"soup.io","foods":[],"cuisines":[],"reviews":[]},
{"id":"bcba99c7-3546-40e5-9f68-c2daa755ea2e","name":"Thiel, Tillman and Rath","address":"1258 Bowman Lane","city":"Grand Rapids","state":"Michigan","zipcode":"49518","latitude":43.0314,"longitude":-85.5503,"open":true,"stars":4.9,"price":3,"phone":"616-429-2410","website":"yahoo.com","foods":[],"cuisines":[],"reviews":[]},
{"id":"4f98fe0b-208c-4954-8d90-3ef37738bf45","name":"Johns-Towne","address":"1 Superior Parkway","city":"Washington","state":"District of Columbia","zipcode":"20442","latitude":38.896,"longitude":-77.0177,"open":false,"stars":3.9,"price":1,"phone":"202-828-4136","website":"businesswire.com","foods":[],"cuisines":[],"reviews":[]},
{"id":"d2ef0a35-75dc-4aa8-b5ca-0155b6127622","name":"Rohan, Ebert and Botsford","address":"96 Carpenter Drive","city":"Portland","state":"Oregon","zipcode":"97216","latitude":45.5137,"longitude":-122.5569,"open":true,"stars":3.8,"price":3,"phone":"503-405-4581","website":"imgur.com","foods":[],"cuisines":[],"reviews":[]},
{"id":"c84bda71-08bd-4b33-854c-0598f55f4e85","name":"Lesch Inc","address":"34357 Merchant Street","city":"Jackson","state":"Mississippi","zipcode":"39282","latitude":32.3113,"longitude":-90.3972,"open":true,"stars":2.6,"price":2,"phone":"601-298-2556","website":"e-recht24.de","foods":[],"cuisines":[],"reviews":[]},
{"id":"1084156b-fd90-4214-a0d8-5563d76582d9","name":"Leffler-Denesik","address":"5046 Upham Way","city":"Knoxville","state":"Tennessee","zipcode":"37931","latitude":35.9924,"longitude":-84.1201,"open":false,"stars":4.6,"price":2,"phone":"865-380-1501","website":"liveinternet.ru","foods":[],"cuisines":[],"reviews":[]},
{"id":"722bfd51-d31d-47fe-8c91-166ec9f3649d","name":"Schimmel-Heathcote","address":"4 Larry Plaza","city":"Houston","state":"Texas","zipcode":"77260","latitude":29.7687,"longitude":-95.3867,"open":true,"stars":4.0,"price":3,"phone":"713-999-6525","website":"blogtalkradio.com","foods":[],"cuisines":[],"reviews":[]},
{"id":"4b1769de-6e10-440d-9752-03a2369e9690","name":"Schamberger LLC","address":"361 Dexter Center","city":"Evansville","state":"Indiana","zipcode":"47737","latitude":37.9971,"longitude":-87.575,"open":false,"stars":1.0,"price":1,"phone":"812-387-0689","website":"paypal.com","foods":[],"cuisines":[],"reviews":[]},
{"id":"f12f8659-643b-4d9a-9761-7708e1af3302","name":"Zieme Group","address":"70487 John Wall Parkway","city":"Washington","state":"District of Columbia","zipcode":"20210","latitude":38.8933,"longitude":-77.0146,"open":true,"stars":4.4,"price":3,"phone":"202-562-3023","website":"123-reg.co.uk","foods":[],"cuisines":[],"reviews":[]},
{"id":"6aa73dac-3bfe-498d-8f7e-4c2dc516d865","name":"Bins, Kilback and Bins","address":"00198 Sauthoff Parkway","city":"Atlanta","state":"Georgia","zipcode":"31196","latitude":33.8444,"longitude":-84.474,"open":true,"stars":3.1,"price":1,"phone":"404-976-7007","website":"canalblog.com","foods":[],"cuisines":[],"reviews":[]},
{"id":"73ef389f-6803-407c-a535-7e2b3d86a275","name":"Krajcik-Shields","address":"9 Heath Court","city":"Orlando","state":"Florida","zipcode":"32825","latitude":28.5469,"longitude":-81.2571,"open":true,"stars":2.5,"price":1,"phone":"954-454-1457","website":"edublogs.org","foods":[],"cuisines":[],"reviews":[]},
{"id":"1e1a707e-2665-4b0c-989d-b5d9279a7461","name":"Wunsch-Pfannerstill","address":"3687 Artisan Center","city":"Cedar Rapids","state":"Iowa","zipcode":"52405","latitude":41.9804,"longitude":-91.7098,"open":true,"stars":2.1,"price":2,"phone":"319-489-1216","website":"wix.com","foods":[],"cuisines":[],"reviews":[]},
{"id":"32fc364b-ef19-4c32-8be1-35305dfac130","name":"Gerhold Inc","address":"97450 Fairview Drive","city":"Hagerstown","state":"Maryland","zipcode":"21747","latitude":39.5207,"longitude":-77.9162,"open":false,"stars":1.6,"price":1,"phone":"240-335-3584","website":"wikia.com","foods":[],"cuisines":[],"reviews":[]},
{"id":"1be5a818-5109-4e5b-9555-7059aebec78d","name":"Lowe, Bernhard and Langosh","address":"286 Holy Cross Drive","city":"Tampa","state":"Florida","zipcode":"33694","latitude":27.872,"longitude":-82.4388,"open":true,"stars":1.3,"price":2,"phone":"813-978-6310","website":"weather.com","foods":[],"cuisines":[],"reviews":[]},
{"id":"050b6227-23b4-4d01-a988-1ac4aac7ad7f","name":"Durgan-Hoeger","address":"298 Birchwood Trail","city":"Terre Haute","state":"Indiana","zipcode":"47812","latitude":39.4336,"longitude":-87.4101,"open":false,"stars":null,"price":null,"phone":"812-592-9564","website":null,"foods":[],"cuisines":[],"reviews":[]},
{"id":"6dbbd4d8-2eab-46ad-99be-c477552f6ede","name":"Kuhn-Kulas","address":"7 Carberry Street","city":"Winter Haven","state":"Florida","zipcode":"33884","latitude":27.981,"longitude":-81.6736,"open":false,"stars":3.6,"price":1,"phone":"863-117-3725","website":"moonfruit.com","foods":[],"cuisines":[],"reviews":[]},
{"id":"ad3fa0c7-89ac-42c2-ad46-4413b9a7dacc","name":"Casper-Gislason","address":"582 John Wall Pass","city":"Brockton","state":"Massachusetts","zipcode":"02305","latitude":41.9705,"longitude":-70.7014,"open":false,"stars":null,"price":null,"phone":"508-451-4679","website":null,"foods":[],"cuisines":[],"reviews":[]},
{"id":"e2b17df1-0167-4a70-b9d2-8adda6689937","name":"Goldner-Denesik","address":"4 Shopko Road","city":"Irving","state":"Texas","zipcode":"75037","latitude":32.7673,"longitude":-96.7776,"open":true,"stars":null,"price":null,"phone":"214-810-4483","website":null,"foods":[],"cuisines":[],"reviews":[]},
{"id":"1fc3a122-2b27-49e3-9a09-1cedf256f7c6","name":"Pagac, Daniel and Hickle","address":"2 Dorton Alley","city":"Oakland","state":"California","zipcode":"94627","latitude":37.6802,"longitude":-121.9215,"open":true,"stars":0.7,"price":4,"phone":"510-187-2163","website":"posterous.com","foods":[],"cuisines":[],"reviews":[]},
{"id":"09dda5a4-ec08-4be3-830b-16a2acb34fd9","name":"Gislason, Adams and Hyatt","address":"1 Helena Hill","city":"Dallas","state":"Texas","zipcode":"75392","latitude":32.7673,"longitude":-96.7776,"open":false,"stars":1.3,"price":3,"phone":"214-651-0529","website":"desdev.cn","foods":[],"cuisines":[],"reviews":[]},
{"id":"59b9f824-7c81-42ff-8e99-61e16b0d297b","name":"Ruecker and Sons","address":"246 Weeping Birch Point","city":"Denver","state":"Colorado","zipcode":"80217","latitude":39.7388,"longitude":-104.4083,"open":false,"stars":2.7,"price":4,"phone":"303-393-8074","website":"princeton.edu","foods":[],"cuisines":[],"reviews":[]},
{"id":"073ce0e2-50e8-45e5-b8a2-10e4646711de","name":"Pouros, Bogan and Bergnaum","address":"3464 Barby Alley","city":"Boise","state":"Idaho","zipcode":"83757","latitude":43.4599,"longitude":-116.244,"open":false,"stars":null,"price":null,"phone":"208-333-2506","website":null,"foods":[],"cuisines":[],"reviews":[]},
{"id":"b45e83bb-a6d5-46ee-8204-07d71055ef88","name":"Carroll Group","address":"12 Shoshone Junction","city":"Lincoln","state":"Nebraska","zipcode":"68517","latitude":40.9317,"longitude":-96.6045,"open":false,"stars":4.4,"price":2,"phone":"402-112-3613","website":"mayoclinic.com","foods":[],"cuisines":[],"reviews":[]},
{"id":"65ecbe79-9e91-4a83-adcc-eb559676dd3e","name":"Gerhold and Sons","address":"91095 Rieder Road","city":"Tampa","state":"Florida","zipcode":"33615","latitude":28.0081,"longitude":-82.5805,"open":false,"stars":null,"price":null,"phone":"813-473-5246","website":null,"foods":[],"cuisines":[],"reviews":[]},
{"id":"c9efcbf6-0819-4c85-bd68-e530e88c0de0","name":"Predovic Inc","address":"0419 Mandrake Avenue","city":"San Jose","state":"California","zipcode":"95118","latitude":37.2568,"longitude":-121.8896,"open":false,"stars":3.5,"price":1,"phone":"408-916-4233","website":"hexun.com","foods":[],"cuisines":[],"reviews":[]},
{"id":"91c4aa81-a50d-4e5e-92a6-e0ebda379fe5","name":"Davis-Weissnat","address":"2359 Menomonie Road","city":"El Paso","state":"Texas","zipcode":"88525","latitude":31.6948,"longitude":-106.3,"open":false,"stars":4.3,"price":2,"phone":"915-196-5409","website":"nymag.com","foods":[],"cuisines":[],"reviews":[]},
{"id":"31332859-300d-4b18-9a65-cc38cb4b3ad3","name":"McKenzie, Larson and Schimmel","address":"6213 Anhalt Hill","city":"Portsmouth","state":"New Hampshire","zipcode":"00214","latitude":43.0059,"longitude":-71.0132,"open":false,"stars":4.0,"price":4,"phone":"603-397-0266","website":"vk.com","foods":[],"cuisines":[],"reviews":[]},
{"id":"05bde6a9-45c6-4ad0-bf5b-390bba2bad43","name":"Goldner-Mills","address":"74539 Upham Road","city":"Topeka","state":"Kansas","zipcode":"66699","latitude":39.0429,"longitude":-95.7697,"open":false,"stars":1.6,"price":2,"phone":"785-644-9876","website":"diigo.com","foods":[],"cuisines":[],"reviews":[]},
{"id":"fcb4cb06-64e8-4489-9a6a-1da524b44f35","name":"Okuneva-Cronin","address":"5760 Westport Center","city":"Stockton","state":"California","zipcode":"95298","latitude":37.9577,"longitude":-121.2897,"open":true,"stars":4.7,"price":3,"phone":"209-191-1320","website":"e-recht24.de","foods":[],"cuisines":[],"reviews":[]},
{"id":"4ac4e390-2717-4b84-828c-68eecce2aafb","name":"Schmitt and Sons","address":"76 Dunning Terrace","city":"Bronx","state":"New York","zipcode":"10474","latitude":40.8139,"longitude":-73.8841,"open":true,"stars":3.4,"price":1,"phone":"718-946-0855","website":"mashable.com","foods":[],"cuisines":[],"reviews":[]},
{"id":"9c564de8-2005-46ac-acbf-05fc8f66357b","name":"Lind LLC","address":"4 Loeprich Park","city":"Durham","state":"North Carolina","zipcode":"27705","latitude":36.0218,"longitude":-78.9478,"open":false,"stars":2.2,"price":2,"phone":"434-600-4091","website":"usa.gov","foods":[],"cuisines":[],"reviews":[]},
{"id":"870fb7eb-dd8c-4ead-aefb-7209d9fff686","name":"Koss-White","address":"38357 Express Alley","city":"Huntington","state":"West Virginia","zipcode":"25709","latitude":38.1321,"longitude":-82.4183,"open":true,"stars":1.1,"price":1,"phone":"304-544-7817","website":"google.com","foods":[],"cuisines":[],"reviews":[]},
{"id":"fb59f566-8a19-471b-b10a-4c054a0e12a7","name":"Hettinger, Mante and Bins","address":"50369 Jenifer Alley","city":"Arlington","state":"Texas","zipcode":"76096","latitude":32.7714,"longitude":-97.2915,"open":false,"stars":2.6,"price":2,"phone":"817-137-7530","website":"discovery.com","foods":[],"cuisines":[],"reviews":[]},
{"id":"9c3bccd7-1664-427a-9159-34fcb0e1113f","name":"McGlynn Inc","address":"15 Merrick Center","city":"Philadelphia","state":"Pennsylvania","zipcode":"19131","latitude":39.9845,"longitude":-75.2282,"open":false,"stars":3.6,"price":1,"phone":"215-448-3582","website":"posterous.com","foods":[],"cuisines":[],"reviews":[]},
{"id":"bc8371ae-d22a-44c5-998b-52ed164e0f7b","name":"Hartmann Inc","address":"62 Nevada Junction","city":"Pasadena","state":"California","zipcode":"91186","latitude":33.7866,"longitude":-118.2987,"open":false,"stars":0.4,"price":1,"phone":"626-955-2106","website":"studiopress.com","foods":[],"cuisines":[],"reviews":[]},
{"id":"d01eb140-4624-4897-9bbd-d5339ffabb6c","name":"Cassin, Kuhic and Kreiger","address":"8 Forest Terrace","city":"Washington","state":"District of Columbia","zipcode":"20456","latitude":38.8981,"longitude":-77.0401,"open":false,"stars":2.8,"price":4,"phone":"202-499-3900","website":"cargocollective.com","foods":[],"cuisines":[],"reviews":[]},
{"id":"c57f5b72-6455-4c38-b8a8-d50a315c5b89","name":"Schmidt, Walter and Hagenes","address":"281 Dottie Junction","city":"Fort Pierce","state":"Florida","zipcode":"34981","latitude":27.4049,"longitude":-80.3623,"open":false,"stars":4.8,"price":3,"phone":"772-676-2773","website":"stanford.edu","foods":[],"cuisines":[],"reviews":[]},
{"id":"872e765a-6fcb-4168-9783-e366e014addd","name":"Stanton LLC","address":"76 Dahle Place","city":"Brooklyn","state":"New York","zipcode":"11225","latitude":40.6628,"longitude":-73.9546,"open":true,"stars":1.4,"price":1,"phone":"718-832-0641","website":"phpbb.com","foods":[],"cuisines":[],"reviews":[]},
{"id":"f3f29730-5253-41f0-bdc2-69dcd8e63d9e","name":"Armstrong-Reilly","address":"5 Spaight Road","city":"Shawnee Mission","state":"Kansas","zipcode":"66220","latitude":38.9613,"longitude":-94.8222,"open":true,"stars":4.0,"price":2,"phone":"913-538-5012","website":"phpbb.com","foods":[],"cuisines":[],"reviews":[]},
{"id":"a4949c5f-d894-42d8-a4bc-8a22e90523ad","name":"Pagac, Bogan and Schmidt","address":"850 Laurel Pass","city":"Anderson","state":"Indiana","zipcode":"46015","latitude":40.0938,"longitude":-85.6578,"open":true,"stars":1.5,"price":2,"phone":"765-794-5025","website":"utexas.edu","foods":[],"cuisines":[],"reviews":[]},
{"id":"c5a912c2-b85e-4fd8-9e93-a8471a727caf","name":"Hammes LLC","address":"67408 Kedzie Junction","city":"Lexington","state":"Kentucky","zipcode":"40596","latitude":38.0283,"longitude":-84.4715,"open":false,"stars":4.2,"price":4,"phone":"859-149-7181","website":"xrea.com","foods":[],"cuisines":[],"reviews":[]},
{"id":"b1148a97-ace9-44c4-be78-d674efbe480f","name":"Mosciski, Padberg and Zieme","address":"2565 Evergreen Crossing","city":"Hyattsville","state":"Maryland","zipcode":"20784","latitude":38.9513,"longitude":-76.8958,"open":true,"stars":4.2,"price":3,"phone":"301-697-1325","website":"epa.gov","foods":[],"cuisines":[],"reviews":[]},
{"id":"2e9c0419-e689-4f81-bf55-5aafec15503f","name":"Aufderhar, Kunde and Mosciski","address":"52377 Almo Parkway","city":"Minneapolis","state":"Minnesota","zipcode":"55402","latitude":44.9762,"longitude":-93.2759,"open":false,"stars":0.3,"price":4,"phone":"651-182-6989","website":"dagondesign.com","foods":[],"cuisines":[],"reviews":[]},
{"id":"0091ea08-8fea-4525-a6b7-dfc2881f31ff","name":"Gerhold, Ebert and Leffler","address":"16743 Hoard Circle","city":"Richmond","state":"Virginia","zipcode":"23285","latitude":37.5242,"longitude":-77.4932,"open":false,"stars":2.0,"price":4,"phone":"804-132-0338","website":"upenn.edu","foods":[],"cuisines":[],"reviews":[]},
{"id":"085030de-92d1-4f38-a734-e954fcba831c","name":"Bogisich, Schmitt and Sawayn","address":"2 Linden Way","city":"Sacramento","state":"California","zipcode":"94273","latitude":38.3774,"longitude":-121.4444,"open":false,"stars":4.6,"price":1,"phone":"916-727-4446","website":"newsvine.com","foods":[],"cuisines":[],"reviews":[]},
{"id":"2b0ce18d-61bb-4770-bc6a-b72307c8bc21","name":"Anderson Inc","address":"8 Springview Parkway","city":"Washington","state":"District of Columbia","zipcode":"20067","latitude":38.8933,"longitude":-77.0146,"open":false,"stars":3.9,"price":2,"phone":"202-658-2005","website":"tripod.com","foods":[],"cuisines":[],"reviews":[]},
{"id":"64b0dc8d-286b-4143-bf9c-7ff28b445359","name":"Walter Group","address":"370 Becker Place","city":"Dallas","state":"Texas","zipcode":"75387","latitude":32.7673,"longitude":-96.7776,"open":true,"stars":2.0,"price":2,"phone":"214-983-7541","website":"archive.org","foods":[],"cuisines":[],"reviews":[]},
{"id":"c17c0f85-c76d-4d79-89f5-403181d60757","name":"Kerluke, Mertz and Casper","address":"46 Hoepker Crossing","city":"Inglewood","state":"California","zipcode":"90305","latitude":33.9583,"longitude":-118.3258,"open":true,"stars":2.6,"price":4,"phone":"323-352-2408","website":"fc2.com","foods":[],"cuisines":[],"reviews":[]},
{"id":"6d9a6673-7550-4f06-bcfd-45ed799098a4","name":"Walter LLC","address":"8 Bluestem Parkway","city":"El Paso","state":"Texas","zipcode":"79923","latitude":31.6948,"longitude":-106.3,"open":true,"stars":2.1,"price":2,"phone":"915-762-2495","website":"biblegateway.com","foods":[],"cuisines":[],"reviews":[]},
{"id":"857188c3-742a-4a3a-b242-5de6b6095968","name":"Dibbert-Kovacek","address":"53597 Evergreen Place","city":"New York City","state":"New York","zipcode":"10275","latitude":40.7808,"longitude":-73.9772,"open":false,"stars":1.8,"price":4,"phone":null,"website":"blogs.com","foods":[],"cuisines":[],"reviews":[]},
{"id":"60a0f80c-02fe-419d-9da6-57f32e19a477","name":"Bartell, Graham and Carroll","address":"9288 Barby Place","city":"Jeffersonville","state":"Indiana","zipcode":"47134","latitude":38.2868,"longitude":-85.7321,"open":true,"stars":2.5,"price":2,"phone":"812-751-4256","website":"fema.gov","foods":[],"cuisines":[],"reviews":[]},
{"id":"beace0fd-94d5-43b0-8b57-6cb3df0d12d2","name":"Collier Group","address":"40 Bluestem Pass","city":"New York City","state":"New York","zipcode":"10155","latitude":40.7611,"longitude":-73.968,"open":false,"stars":1.9,"price":1,"phone":"917-733-0931","website":"msu.edu","foods":[],"cuisines":[],"reviews":[]},
{"id":"eb59636b-44ff-4169-839c-207774b949fe","name":"Harvey, Bashirian and Hackett","address":"3580 Pennsylvania Plaza","city":"Brooklyn","state":"New York","zipcode":"11215","latitude":40.6669,"longitude":-73.9828,"open":false,"stars":2.0,"price":4,"phone":"646-650-9019","website":"theguardian.com","foods":[],"cuisines":[],"reviews":[]},
{"id":"41c26f5d-9423-443b-88e5-dfc0547bcd3e","name":"DuBuque, Langosh and Lakin","address":"5 Hudson Crossing","city":"Los Angeles","state":"California","zipcode":"90055","latitude":33.7866,"longitude":-118.2987,"open":true,"stars":1.8,"price":2,"phone":"213-810-3587","website":"oakley.com","foods":[],"cuisines":[],"reviews":[]},
{"id":"e1ca3bf2-1ef7-4197-bd17-12a5642698da","name":"Lubowitz, Kovacek and Crona","address":"7 Meadow Vale Road","city":"Spartanburg","state":"South Carolina","zipcode":"29319","latitude":34.8882,"longitude":-81.969,"open":true,"stars":0.1,"price":2,"phone":"864-519-1253","website":"imdb.com","foods":[],"cuisines":[],"reviews":[]},
{"id":"dab6e220-c0e3-45ce-8843-df87caca95d6","name":"Bernier-Von","address":"32 Green Plaza","city":"Kansas City","state":"Missouri","zipcode":"64160","latitude":39.2829,"longitude":-94.409,"open":false,"stars":3.9,"price":2,"phone":"816-660-5884","website":"desdev.cn","foods":[],"cuisines":[],"reviews":[]},
{"id":"ab6e82d8-2ef7-423f-aecb-021f838c0d01","name":"Welch, Legros and Rowe","address":"716 Rieder Drive","city":"Colorado Springs","state":"Colorado","zipcode":"80951","latitude":38.8881,"longitude":-104.6556,"open":true,"stars":2.9,"price":4,"phone":"719-762-2874","website":"tinypic.com","foods":[],"cuisines":[],"reviews":[]},
{"id":"2c50edc0-345a-418a-a5a2-29cd6cd2ad85","name":"Rempel and Sons","address":"79824 New Castle Road","city":"North Little Rock","state":"Arkansas","zipcode":"72199","latitude":34.8272,"longitude":-92.2847,"open":true,"stars":0.2,"price":1,"phone":"501-396-7042","website":"opera.com","foods":[],"cuisines":[],"reviews":[]},
{"id":"a27fded3-850f-4c25-9055-ce2909cc8c23","name":"Spencer Group","address":"3549 Everett Trail","city":"Washington","state":"District of Columbia","zipcode":"20337","latitude":38.8933,"longitude":-77.0146,"open":false,"stars":0.1,"price":3,"phone":"202-799-3426","website":"symantec.com","foods":[],"cuisines":[],"reviews":[]},
{"id":"cede1e6b-722a-47a9-a973-8fac86843942","name":"Glover, Leffler and Crooks","address":"36 John Wall Circle","city":"San Antonio","state":"Texas","zipcode":"78245","latitude":29.4189,"longitude":-98.6895,"open":false,"stars":2.8,"price":3,"phone":"830-867-4196","website":"chron.com","foods":[],"cuisines":[],"reviews":[]},
{"id":"a1a03e34-cbba-4c0d-90d4-d2d2c33a13b7","name":"Zulauf Group","address":"1 Scofield Hill","city":"San Jose","state":"California","zipcode":"95108","latitude":37.3378,"longitude":-121.8908,"open":false,"stars":0.1,"price":1,"phone":"408-811-3297","website":"mtv.com","foods":[],"cuisines":[],"reviews":[]},
{"id":"a521a9b3-fdba-41d5-9bc5-cfc379c08b64","name":"O'Connell-Beer","address":"98985 Dayton Park","city":"Springfield","state":"Illinois","zipcode":"62776","latitude":39.7495,"longitude":-89.606,"open":false,"stars":2.5,"price":1,"phone":"217-452-6822","website":"wunderground.com","foods":[],"cuisines":[],"reviews":[]},
{"id":"c3397cb1-bcda-4d69-9720-c9a0a303ad82","name":"Boyle-Nader","address":"5 Lerdahl Hill","city":"Pensacola","state":"Florida","zipcode":"32575","latitude":30.6143,"longitude":-87.2758,"open":true,"stars":0.2,"price":1,"phone":"850-600-5670","website":"plala.or.jp","foods":[],"cuisines":[],"reviews":[]},
{"id":"b09b73aa-8903-4f99-9441-de5663fae4f7","name":"Gibson, Bechtelar and Buckridge","address":"2 8th Plaza","city":"Chicago","state":"Illinois","zipcode":"60609","latitude":41.8097,"longitude":-87.6533,"open":true,"stars":1.0,"price":2,"phone":"773-945-1782","website":"constantcontact.com","foods":[],"cuisines":[],"reviews":[]},
{"id":"9200d9c6-4591-4ab1-8149-dce226564076","name":"O'Keefe, Weber and Kovacek","address":"752 Thompson Trail","city":"Buffalo","state":"New York","zipcode":"14220","latitude":42.8441,"longitude":-78.8182,"open":false,"stars":1.0,"price":1,"phone":"716-519-3015","website":"netlog.com","foods":[],"cuisines":[],"reviews":[]},
{"id":"76ba6d5c-0fb4-423f-8e9c-f07242f853ad","name":"Hilll and Sons","address":"7610 Holy Cross Drive","city":"Amarillo","state":"Texas","zipcode":"79116","latitude":35.2454,"longitude":-101.999,"open":false,"stars":null,"price":null,"phone":"806-585-9214","website":null,"foods":[],"cuisines":[],"reviews":[]}
]
